[{"id": "property-970503", "title": "1G/14 Upper Queen Street City Centre (Auckland City), Auckland", "rate": 600, "bedrooms": 1, "bathrooms": 1, "pets": "no", "lookup": "1G/14 Upper Queen Street, Auckland", "street_number": "1G/14", "street": "Upper Queen Street", "locality": "Auckland Central", "city": "Auckland", "region": "Auckland", "postcode": 1010.0, "meshblock": 4004960.0, "lon": 174.761402, "lat": -36.858596, "formatted": "1G/14 Upper Queen Street, Auckland Central, Auckland"}, {"id": "property-2799106", "title": "406/147-149 Victoria Street West City Centre (Auckland City), Auckland", "rate": 540, "bedrooms": 1, "bathrooms": 1, "pets": "no", "lookup": "406/147-149 Victoria Street West, Auckland", "street_number": "406/147", "street": "Victoria Street West", "locality": "Auckland Central", "city": "Auckland", "region": "Auckland", "postcode": 1010.0, "meshblock": 4012591.0, "lon": 174.759537, "lat": -36.847513, "formatted": "406/147 Victoria Street West, Auckland Central, Auckland"}, {"id": "property-3036639", "title": "7C/34 Kingston Street City Centre (Auckland City), Auckland", "rate": 450, "bedrooms": 2, "bathrooms": 1, "pets": "no", "lookup": "7C/34 Kingston Street, Auckland", "street_number": "7C/34", "street": "Kingston Street", "locality": "Auckland Central", "city": "Auckland", "region": "Auckland", "postcode": 1010.0, "meshblock": 433402.0, "lon": 174.762271, "lat": -36.847394, "formatted": "7C/34 Kingston Street, Auckland Central, Auckland"}, {"id": "property-4924201", "title": "Common Area/10 Central Avenue, The Avenues Central Whangarei", "rate": 500, "bedrooms": 1, "bathrooms": 1, "pets": "no", "lookup": "Common Area/10 Central Avenue, The Avenues Central Whangarei", "street_number": null, "street": null, "locality": null, "city": null, "region": null, "postcode": null, "meshblock": null, "lon": null, "lat": null, "formatted": null}, {"id": "property-5386856", "title": "709/70 Sale Street City Centre (Auckland City), Auckland", "rate": 500, "bedrooms": 2, "bathrooms": 2, "pets": "no", "lookup": "709/70 Sale Street, Auckland", "street_number": "709/70", "street": "Sale Street", "locality": "Auckland Central", "city": "Auckland", "region": "Auckland", "postcode": 1010.0, "meshblock": 4012592.0, "lon": 174.754906, "lat": -36.849914, "formatted": "709/70 Sale Street, Auckland Central, Auckland"}, {"id": "property-5961548", "title": "25 Cleghorn Avenue Mount Roskill", "rate": 1600, "bedrooms": 5, "bathrooms": 3, "pets": "yes", "lookup": "25 Cleghorn Avenue Mount Roskill", "street_number": "25", "street": "Cleghorn Avenue", "locality": "Mount Roskill", "city": "Auckland", "region": "Auckland", "postcode": 1041.0, "meshblock": 560800.0, "lon": 174.74512, "lat": -36.90271, "formatted": "25 Cleghorn Avenue, Mount Roskill, Auckland"}, {"id": "property-6173006", "title": "307/27 Victoria Street West City Centre (Auckland City)", "rate": 900, "bedrooms": 2, "bathrooms": 2, "pets": "no", "lookup": "307/27 Victoria Street West", "street_number": "307", "street": "Victoria Street West", "locality": "Pukekohe", "city": "Pukekohe", "region": "Auckland", "postcode": 2120.0, "meshblock": 4013119.0, "lon": 174.882308, "lat": -37.207906, "formatted": "307 Victoria Street West, Pukekohe"}, {"id": "property-6173008", "title": "309/27 Victoria Street West City Centre (Auckland City)", "rate": 900, "bedrooms": 2, "bathrooms": 2, "pets": "no", "lookup": "309/27 Victoria Street West", "street_number": "309", "street": "Victoria Street West", "locality": "Pukekohe", "city": "Pukekohe", "region": "Auckland", "postcode": 2120.0, "meshblock": 4013119.0, "lon": 174.882172, "lat": -37.20798, "formatted": "309 Victoria Street West, Pukekohe"}, {"id": "property-6173009", "title": "310/27 Victoria Street West City Centre (Auckland City)", "rate": 900, "bedrooms": 2, "bathrooms": 2, "pets": "no", "lookup": "310/27 Victoria Street West", "street_number": null, "street": "Victoria Street", "locality": "Okarito", "city": "Whataroa", "region": "West Coast", "postcode": 7886.0, "meshblock": 4013793.0, "lon": 170.165629, "lat": -43.223154, "formatted": "Victoria Street, Okarito, Whataroa"}, {"id": "property-6183672", "title": "68 Boundary Road Blockhouse Bay", "rate": 1200, "bedrooms": 3, "bathrooms": 2, "pets": "yes", "lookup": "68 Boundary Road Blockhouse Bay", "street_number": "68", "street": "Boundary Road", "locality": "Blockhouse Bay", "city": "Auckland", "region": "Auckland", "postcode": 600.0, "meshblock": 584501.0, "lon": 174.715872, "lat": -36.915163, "formatted": "68 Boundary Road, Blockhouse Bay, Auckland"}, {"id": "property-6215185", "title": "106/25 Enfield Street Mount Eden, Auckland", "rate": 780, "bedrooms": 2, "bathrooms": 2, "pets": "no", "lookup": "106/25 Enfield Street Mount Eden, Auckland", "street_number": "106/27", "street": "Enfield Street", "locality": "Mount Eden", "city": "Auckland", "region": "Auckland", "postcode": 1024.0, "meshblock": 4015940.0, "lon": 174.762826, "lat": -36.868605, "formatted": "106/27 Enfield Street, Mount Eden, Auckland"}]